time,loop_dt,x,y,z,vx,vy,vz,pitch,roll,yaw,pid_x,pid_y,pid_z,rc_lr,rc_fb,rc_ud,rc_yaw,tof_cm,barometer_m,height_cm,agx,agy,agz,vel_raw_x,vel_raw_y,vel_raw_z,pitch_raw,roll_raw,yaw_raw,battery:
1765315461.401439,0.0,0.0,0.0,0.0,0.0,0.0,0.0,1,-1,0,0.0,0.0,10.0,0.0,0.0,10.0,0,86,15962.0,60,14.0,-35.0,-1006.0,0,0,0,1,-1,0,77
1765315461.4425623,0.0,0.0,0.0,1.26,0.0,0.0,0.0,1,-1,0,0.0,0.0,-40,0.0,0.0,-40,0,86,15971.0,60,-47.0,-1.0,-971.0,0,0,0,1,-1,0,77
1765315461.4836128,0.0,0.0,0.0,1.6380000000000001,0.0,0.0,0.0,1,-1,0,0.0,0.0,-40,0.0,0.0,-40,0,86,15971.0,60,-47.0,-1.0,-971.0,0,0,0,1,-1,0,77
1765315461.524604,0.0,0.0,0.0,1.7514,0.0,0.0,0.0,1,-1,0,0.0,0.0,-40,0.0,0.0,-40,0,86,15971.0,60,-47.0,-1.0,-971.0,0,0,0,1,-1,0,77
1765315461.565476,0.0,0.00040871858596801757,0.0,1.08542,0.01,0.0,0.0,1,-1,0,-0.1363487434387207,0.0,40,-0.1363487434387207,0.0,40,0,86,15966.0,60,-45.0,2.0,-985.0,1,0,0,1,-1,0,77
1765315461.606281,0.0005052089691162109,0.0008167695999145507,0.0,0.885626,0.01,0.0,0.0,1,-1,0,-0.19920323084193142,0.0,40,-0.19920323084193142,0.0,40,0,86,15966.0,60,-45.0,2.0,-985.0,1,0,0,1,-1,0,77
1765315461.6467478,0.0,0.0012214374542236328,0.0,1.3891877999997453,0.01,0.0,0.0,0,-1,0,-0.23698756110800273,0.0,-40,-0.23698756110800273,0.0,-40,0,87,15969.999999999998,60,-11.0,-9.0,-945.0,1,0,0,0,-1,0,76
1765315461.6875277,0.0,0.0016292357444763184,0.0,1.540256339999669,0.01,0.0,0.0,0,-1,0,-0.2604214549546757,0.0,-40,-0.2604214549546757,0.0,-40,0,87,15969.999999999998,60,-11.0,-9.0,-945.0,1,0,0,0,-1,0,76
1765315461.7283185,0.0,0.0020371437072753905,0.0,1.585576901999646,0.01,0.0,0.0,0,-1,0,-0.2795865583612648,0.0,-40,-0.2795865583612648,0.0,-40,0,87,15969.999999999998,60,-11.0,-9.0,-945.0,1,0,0,0,-1,0,76
1765315461.7692676,0.0,0.0024466347694396973,0.0,2.155673070599894,0.01,0.0,0.0,0,-1,0,-0.2971057148056876,0.0,-40,-0.2971057148056876,0.0,-40,0,86,15974.0,60,40.0,-37.0,-1042.0,1,0,0,0,-1,0,76
1765315461.8100913,0.0,0.00285487174987793,0.0,2.3267019211799687,0.01,0.0,0.0,0,-1,0,-0.3138909996063571,0.0,-40,-0.3138909996063571,0.0,-40,0,86,15974.0,60,40.0,-37.0,-1042.0,1,0,0,0,-1,0,76
1765315461.8513517,0.0,0.00285487174987793,0.0,1.9580105763539906,0.0,0.0,0.0,1,-1,0,-0.19407332183961315,0.0,15.232393559489736,-0.19407332183961315,0.0,15.232393559489736,0,86,15971.0,60,-16.0,-17.0,-1016.0,0,0,0,1,-1,0,76
1765315461.8921745,0.0,0.00285487174987793,0.0,1.8474031729061973,0.0,0.0,0.0,1,-1,0,-0.14614625073291557,0.0,5.33590557171528,-0.14614625073291557,0.0,5.33590557171528,0,86,15971.0,60,-16.0,-17.0,-1016.0,0,0,0,1,-1,0,76
1765315461.9330587,0.0,0.00285487174987793,0.0,1.8142209518718593,0.0,0.0,0.0,1,-1,0,-0.12697542229023653,0.0,-10.91793269286132,-0.12697542229023653,0.0,-10.91793269286132,0,86,15971.0,60,-16.0,-17.0,-1016.0,0,0,0,1,-1,0,76
1765315461.9741457,0.001001119613647461,0.00285487174987793,0.0,0.8242662855613032,0.0,0.0,0.0,1,-1,0,-0.11930709091316494,0.0,40,-0.11930709091316494,0.0,40,0,86,15963.999999999998,60,25.0,0.0,-1003.0,0,0,0,1,-1,0,76
1765315462.015258,0.0,0.00285487174987793,0.0,0.5272798856681363,0.0,0.0,0.0,1,-1,0,-0.11623975836233628,0.0,40,-0.11623975836233628,0.0,40,0,86,15963.999999999998,60,25.0,0.0,-1003.0,0,0,0,1,-1,0,76
1765315462.056515,0.0,0.00285487174987793,0.0,1.1346839657004408,0.0,0.0,0.0,1,-1,0,-0.11501282534200483,0.0,-40,-0.11501282534200483,0.0,-40,0,85,15969.0,60,9.0,-21.0,-1026.0,0,0,0,1,-1,0,76
1765315462.097501,0.0,0.00285487174987793,0.0,1.3169051897101323,0.0,0.0,0.0,1,-1,0,-0.11452205213387225,0.0,-40,-0.11452205213387225,0.0,-40,0,85,15969.0,60,9.0,-21.0,-1026.0,0,0,0,1,-1,0,76
1765315462.1388736,0.0005090236663818359,0.00285487174987793,0.0,1.3715715569130396,0.0,0.0,0.0,1,-1,0,-0.11432574285061921,0.0,-40,-0.11432574285061921,0.0,-40,0,85,15969.0,60,9.0,-21.0,-1026.0,0,0,0,1,-1,0,76
1765315462.1794314,0.0,0.00285487174987793,0.00040557861328125003,1.5279714670736573,0.0,0.01,0.0,1,-1,0,-0.114247219137318,-0.13622314453125,-40,-0.114247219137318,-0.13622314453125,-40,0,85,15969.999999999998,60,11.0,-14.0,-973.0,0,1,0,1,-1,0,76
1765315462.2205238,0.0,0.00285487174987793,0.000816502571105957,1.5748914401218426,0.0,0.01,0.0,1,-1,0,-0.11421580965199751,-0.20066010284423827,-39.84674533003091,-0.11421580965199751,-0.20066010284423827,-39.84674533003091,0,85,15969.999999999998,60,11.0,-14.0,-973.0,0,1,0,1,-1,0,76
1765315462.2617624,0.0,0.00285487174987793,0.0012288880348205566,1.0254674320365527,0.0,0.01,0.0,1,0,0,-0.11420324585786931,-0.2363555213928223,40,-0.11420324585786931,-0.2363555213928223,40,0,84,15966.0,60,19.0,-2.0,-965.0,0,1,0,1,0,0,76
1765315462.3027878,0.0,0.00285487174987793,0.0016391420364379882,0.8606402296109658,0.0,0.01,0.0,1,0,0,-0.11419822034021804,-0.26044568145751945,40,-0.11419822034021804,-0.26044568145751945,40,0,84,15966.0,60,19.0,-2.0,-965.0,0,1,0,1,0,0,76
1765315462.3436365,0.0,0.00285487174987793,0.002047629356384277,0.8111920688832897,0.0,0.01,0.0,1,0,0,-0.11419621013315753,-0.27985717425537104,18.58504550886952,-0.11419621013315753,-0.27985717425537104,18.58504550886952,0,84,15966.0,60,19.0,-2.0,-965.0,0,1,0,1,0,0,76
1765315462.3850439,0.0,0.0032689452171325685,0.002047629356384277,-0.18714237933501313,0.01,0.0,0.0,1,0,0,-0.2507583447405189,-0.16108597425537108,40,-0.2507583447405189,-0.16108597425537108,40,0,83,15959.0,60,45.0,-38.0,-1026.0,1,0,0,1,0,0,76
1765315462.4259272,0.0,0.003677778244018555,0.002047629356384277,0.07335728619949605,0.01,0.0,0.0,1,0,0,-0.3151113441828287,-0.11357749425537109,16.794318721127205,-0.3151113441828287,-0.11357749425537109,16.794318721127205,0,83,15963.0,60,-7.0,-18.0,-1068.0,1,0,0,1,0,0,76
1765315462.4662628,0.0,0.004081134796142578,0.002047629356384277,0.15150718585984882,0.01,0.0,0.0,1,0,0,-0.3504454776145377,-0.09457410225537108,-4.11412935833445,-0.3504454776145377,-0.09457410225537108,-4.11412935833445,0,83,15963.0,60,-7.0,-18.0,-1068.0,1,0,0,1,0,0,76
1765315462.5065763,0.0,0.004484269618988037,0.002047629356384277,0.7314521557577001,0.01,0.0,0.0,1,-1,0,-0.37425081906705526,-0.08697274545537108,-40,-0.37425081906705526,-0.08697274545537108,-40,0,82,15966.999999999998,60,-17.0,1.0,-1033.0,1,0,0,1,-1,0,76
1765315462.5480564,0.0,0.004899070262908935,0.002047629356384277,0.9054356467270555,0.01,0.0,0.0,1,-1,0,-0.39391482423937085,-0.08393220273537108,-40,-0.39391482423937085,-0.08393220273537108,-40,0,82,15966.999999999998,60,-17.0,1.0,-1033.0,1,0,0,1,-1,0,76
1765315462.5890245,0.0,0.005308752059936523,0.002047629356384277,0.957630694017862,0.01,0.0,0.0,1,-1,0,-0.41153088788666614,-0.08271598564737108,-36.24147288233989,-0.41153088788666614,-0.08271598564737108,-36.24147288233989,0,82,15966.999999999998,60,-17.0,1.0,-1033.0,1,0,0,1,-1,0,76
1765315462.630227,0.0,0.005720777511596679,0.002047629356384277,0.2732892082053586,0.01,0.0,0.0,0,-2,0,-0.4285034226595492,-0.08222949881217108,40,-0.4285034226595492,-0.08222949881217108,40,0,82,15962.0,60,-10.0,18.0,-987.0,1,0,0,0,-2,0,76
1765315462.6712594,0.0,0.00613110065460205,0.002047629356384277,0.06798676246160759,0.01,0.0,0.0,0,-2,0,-0.4451129550623549,-0.08203490407809108,40,-0.4451129550623549,-0.08203490407809108,40,0,82,15962.0,60,-10.0,18.0,-987.0,1,0,0,0,-2,0,76
1765315462.7118175,0.0,0.006536681652069091,0.002047629356384277,0.42289602873848237,0.01,0.0,0.0,0,-2,0,-0.46141483763407287,-0.08195706618445908,-39.472780308142816,-0.46141483763407287,-0.08195706618445908,-39.472780308142816,0,81,15965.0,60,7.0,-20.0,-1031.0,1,0,0,0,-2,0,76
1765315462.7526748,0.0,0.006945254802703857,0.002047629356384277,0.5293688086215448,0.01,0.0,0.0,0,-2,0,-0.477789220728678,-0.08192593102700628,-31.133597116359436,-0.477789220728678,-0.08192593102700628,-31.133597116359436,0,81,15965.0,60,7.0,-20.0,-1031.0,1,0,0,0,-2,0,76
1765315462.7935646,0.0,0.007354152202606201,0.002047629356384277,0.5613106425864636,0.01,0.0,0.0,0,-2,0,-0.4941576995524576,-0.08191347696402516,-15.858268411920399,-0.4941576995524576,-0.08191347696402516,-15.858268411920399,0,81,15965.0,60,7.0,-20.0,-1031.0,1,0,0,0,-2,0,76
1765315462.8347073,0.0005054473876953125,0.007770633697509765,0.002047629356384277,0.010893192776193772,0.01,0.0,0.0,1,-2,0,-0.5108219924796744,-0.08190849533883271,40,-0.5108219924796744,-0.08190849533883271,40,0,81,15961.000000000002,60,-19.0,-20.0,-1044.0,1,0,0,1,-2,0,76
1765315462.8761697,0.0,0.008180203437805175,0.002047629356384277,-0.15423204216688718,0.01,0.0,0.0,1,-2,0,-0.5272067953439203,-0.08190650268875574,40,-0.5272067953439203,-0.08190650268875574,40,0,81,15961.000000000002,60,-19.0,-20.0,-1044.0,1,0,0,1,-2,0,76
1765315462.9170744,0.0,0.008589251041412352,0.002047629356384277,0.3562303873499339,0.01,0.0,0.0,0,-1,0,-0.5435695047891793,-0.08190570562872494,-40,-0.5435695047891793,-0.08190570562872494,-40,0,81,15965.0,60,-41.0,21.0,-1029.0,1,0,0,0,-1,0,76
1765315462.9578664,0.0005044937133789062,0.009002215862274168,0.002047629356384277,0.5093691162049803,0.01,0.0,0.0,0,-1,0,-0.5600884197440407,-0.08190538680471263,-40,-0.5600884197440407,-0.08190538680471263,-40,0,81,15965.0,60,-41.0,21.0,-1029.0,1,0,0,0,-1,0,76
1765315462.998444,0.0,0.009402947425842283,0.002047629356384277,0.5553107348614942,0.01,0.0,0.0,0,-1,0,-0.576117811134921,-0.0819052592751077,-23.30488090458795,-0.576117811134921,-0.0819052592751077,-23.30488090458795,0,81,15965.0,60,-41.0,21.0,-1029.0,1,0,0,0,-1,0,76
1765315463.0388703,0.0,0.009807209968566892,0.002047629356384277,-0.13090677954155172,0.01,0.0,0.0,0,-2,0,-0.5922883643831675,-0.08190520826326574,40,-0.5922883643831675,-0.08190520826326574,40,0,81,15960.0,60,35.0,-7.0,-1071.0,1,0,0,0,-2,0,76
1765315463.0794158,0.0,0.01021266460418701,0.002047629356384277,-0.3367720338624655,0.01,0.0,0.0,0,-2,0,-0.608506570423677,-0.08190518785852895,40,-0.608506570423677,-0.08190518785852895,40,0,81,15960.0,60,35.0,-7.0,-1071.0,1,0,0,0,-2,0,76
1765315463.1197395,0.0,0.010615901947021483,0.002047629356384277,-0.25853161015848497,0.01,0.0,0.0,1,-2,0,-0.6246360723833382,-0.08190517969663423,22.34561174648909,-0.6246360723833382,-0.08190517969663423,22.34561174648909,0,81,15961.000000000002,60,31.0,-3.0,-932.0,1,0,0,1,-2,0,76
1765315463.1603184,0.0,0.011021690368652342,0.002047629356384277,-0.23505948304729082,0.01,0.0,0.0,1,-2,0,-0.6408676125470852,-0.08190517643187634,12.804654990352162,-0.6408676125470852,-0.08190517643187634,12.804654990352162,0,81,15961.000000000002,60,31.0,-3.0,-932.0,1,0,0,1,-2,0,76
1765315463.2016475,0.0,0.011434981822967528,0.002047629356384277,-0.22801784491393257,0.01,0.0,0.0,1,-2,0,-0.6573992720390978,-0.08190517512597319,12.798740166589603,-0.6573992720390978,-0.08190517512597319,12.798740166589603,0,81,15961.000000000002,60,31.0,-3.0,-932.0,1,0,0,1,-2,0,76
1765315463.242684,0.0,0.011845345497131347,0.002047629356384277,1.0340946465255656,0.01,0.0,0.0,1,-2,0,-0.6738138195334127,-0.08190517460361192,-40,-0.6738138195334127,-0.08190517460361192,-40,0,81,15969.999999999998,60,41.0,-24.0,-1131.0,1,0,0,1,-2,0,76
1765315463.2835937,0.0010008811950683594,0.01226445198059082,0.002047629356384277,1.4127283939574151,0.01,0.0,0.0,1,-2,0,-0.6905780790828964,-0.08190517439466742,-40,-0.6905780790828964,-0.08190517439466742,-40,0,81,15969.999999999998,60,41.0,-24.0,-1131.0,1,0,0,1,-2,0,76
1765315463.3245528,0.0,0.012664034366607665,0.0024472117424011227,0.9698185181872245,0.01,0.01,0.0,1,-2,0,-0.7065613746080122,-0.2178884697517634,29.798003353495854,-0.7065613746080122,-0.2178884697517634,29.798003353495854,0,82,15966.0,60,17.0,-11.0,-968.0,1,1,0,1,-2,0,76
1765315463.365095,0.0,0.013069455623626708,0.0028526329994201655,0.8369455554561673,0.01,0.01,0.0,1,-2,0,-0.7227782249225505,-0.28210531999909394,27.96123553037199,-0.7227782249225505,-0.28210531999909394,27.96123553037199,0,82,15966.0,60,17.0,-11.0,-968.0,1,1,0,1,-2,0,76
1765315463.4054806,0.0,0.013473312854766845,0.003256490230560302,0.7970836666368502,0.01,0.01,0.0,1,-2,0,-0.7389325141816667,-0.317459609231327,11.377575205170523,-0.7389325141816667,-0.317459609231327,11.377575205170523,0,82,15966.0,60,17.0,-11.0,-968.0,1,1,0,1,-2,0,76
1765315463.446667,0.0,0.013885176181793213,0.003668353557586669,0.7886250999910551,0.01,0.01,0.0,1,-1,0,-0.755407047268126,-0.3416141423070327,0.8608845710509634,-0.755407047268126,-0.3416141423070327,0.8608845710509634,0,83,15966.0,60,-52.0,4.0,-937.0,1,1,0,1,-1,0,76
1765315463.4882,0.0,0.014300506114959716,0.004083683490753173,0.7860875299973166,0.01,0.01,0.0,1,-1,0,-0.7720202445969474,-0.36129933963155314,-3.304050791385925,-0.7720202445969474,-0.36129933963155314,-3.304050791385925,0,83,15966.0,60,-52.0,4.0,-937.0,1,1,0,1,-1,0,76
1765315463.5287735,0.0,0.014706242084503173,0.0044894194602966295,0.788826258999195,0.01,0.01,0.0,0,-1,0,-0.7882496833795504,-0.3787575784124356,-5.523717170993932,-0.7882496833795504,-0.3787575784124356,-5.523717170993932,0,84,15966.0,60,7.0,-17.0,-1088.0,1,1,0,0,-1,0,76
1765315463.5693886,0.0,0.015112392902374266,0.004895570278167723,0.7896478776997584,0.01,0.01,0.0,0,-1,0,-0.8044957160947398,-0.3954951311269371,-5.858720945276149,-0.8044957160947398,-0.3954951311269371,-5.858720945276149,0,84,15966.0,60,7.0,-17.0,-1088.0,1,1,0,0,-1,0,76
1765315463.610168,0.0,0.01552018642425537,0.005303363800048827,0.7898943633099275,0.01,0.01,0.0,0,-1,0,-0.8208074569701227,-0.41200348000204434,-5.859926893698086,-0.8208074569701227,-0.41200348000204434,-5.859926893698086,0,84,15966.0,60,7.0,-17.0,-1088.0,1,1,0,0,-1,0,76
1765315463.6522193,0.0,0.015940699577331543,0.005723876953124998,1.0734683089929784,0.01,0.01,0.0,1,-1,0,-0.8376279830932251,-0.42890264932503636,-40,-0.8376279830932251,-0.42890264932503636,-40,0,85,15968.0,60,-31.0,-10.0,-986.0,1,1,0,1,-1,0,75
1765315463.69328,0.0,0.016351306438446046,0.0061344838142395,1.1585404926978937,0.01,0.01,0.0,1,-1,0,-0.8540522575378275,-0.4453583810495945,-40,-0.8540522575378275,-0.4453583810495945,-40,0,85,15968.0,60,-31.0,-10.0,-986.0,1,1,0,1,-1,0,75
1765315463.734275,0.0,0.016351306438446046,0.0065444350242614725,2.167562147809368,0.0,0.01,0.0,1,-1,0,-0.7340522575378361,-0.46176901236246465,-40,-0.7340522575378361,-0.46176901236246465,-40,0,86,15975.0,60,-2.0,19.0,-1026.0,0,1,0,1,-1,0,75
1765315463.774869,0.0,0.016351306438446046,0.006950373649597166,2.47026864434281,0.0,0.01,0.0,1,-1,0,-0.6860522575378395,-0.47801159054068904,-40,-0.6860522575378395,-0.47801159054068904,-40,0,86,15975.0,60,-2.0,19.0,-1026.0,0,1,0,1,-1,0,75
1765315463.815461,0.0,0.016351306438446046,0.007356293201446531,2.561080593302843,0.0,0.01,0.0,1,-1,0,-0.6668522575378408,-0.4942503858805821,-40,-0.6668522575378408,-0.4942503858805821,-40,0,86,15975.0,60,-2.0,19.0,-1026.0,0,1,0,1,-1,0,75
1765315463.8567288,0.0,0.016351306438446046,0.007356293201446531,1.7518241779908532,0.0,0.0,0.0,1,-1,0,-0.6591722575378415,-0.3742511911869496,40,-0.6591722575378415,-0.3742511911869496,40,0,87,15969.0,60,1.0,13.0,-931.0,0,0,0,1,-1,0,75
1765315463.8978605,0.0,0.016351306438446046,0.007356293201446531,1.5090472533972563,0.0,0.0,0.0,1,-1,0,-0.6561002575378416,-0.3262515133094966,40,-0.6561002575378416,-0.3262515133094966,40,0,87,15969.0,60,1.0,13.0,-931.0,0,0,0,1,-1,0,75
1765315463.938657,0.0,0.016759271621704104,0.007356293201446531,1.4362141760191771,0.01,0.0,0.0,1,-2,0,-0.7911900648681643,-0.3070516421585154,17.2367342064448,-0.7911900648681643,-0.3070516421585154,17.2367342064448,0,87,15969.0,60,6.0,-22.0,-922.0,1,0,0,1,-2,0,75
1765315463.9794505,0.0,0.017167205810546877,0.007356293201446531,1.4143642528057534,0.01,0.0,0.0,1,-2,0,-0.8550159124218751,-0.29937169369812294,-3.74961362271711,-0.8550159124218751,-0.29937169369812294,-3.74961362271711,0,87,15969.0,60,6.0,-22.0,-922.0,1,0,0,1,-2,0,75
1765315464.019844,0.0,0.017571141719818117,0.007356293201446531,1.4078092758417262,0.01,0.0,0.0,1,-2,0,-0.8901767407927245,-0.2962997143139659,-12.658940544905898,-0.8901767407927245,-0.2962997143139659,-12.658940544905898,0,87,15969.0,60,6.0,-22.0,-922.0,1,0,0,1,-2,0,75
1765315464.0601249,0.0,0.017973949909210207,0.007356293201446531,2.102342782752518,0.01,0.0,0.0,1,-2,0,-0.9138904251684081,-0.29507092256030315,-40,-0.9138904251684081,-0.29507092256030315,-40,0,86,15974.0,60,-7.0,-15.0,-1014.0,1,0,0,1,-2,0,75
1765315464.1007903,0.0,0.018380603790283206,0.007356293201446531,2.3107028348257557,0.01,0.0,0.0,1,-2,0,-0.9331971231313285,-0.294579405858838,-40,-0.9331971231313285,-0.294579405858838,-40,0,86,15974.0,60,-7.0,-15.0,-1014.0,1,0,0,1,-2,0,75
1765315464.1419663,0.0,0.01879236459732056,0.0077680540084838845,1.3932108504474723,0.01,0.01,0.0,1,-1,0,-0.9508837725008228,-0.430853231459746,40,-0.9508837725008228,-0.430853231459746,40,0,86,15966.999999999998,60,-29.0,-3.0,-1061.0,1,1,0,1,-1,0,75
1765315464.182452,0.0,0.01919722080230713,0.008172910213470457,1.117963255133987,0.01,0.01,0.0,1,-1,0,-0.9675645075354851,-0.4949688369869745,40,-0.9675645075354851,-0.4949688369869745,40,0,86,15966.999999999998,60,-29.0,-3.0,-1061.0,1,1,0,1,-1,0,75
1765315464.2231305,0.0,0.019604005813598634,0.00857969522476196,1.0353889765399416,0.01,0.01,0.0,1,-1,0,-0.9840305027212248,-0.5304087803697409,29.883945808884548,-0.9840305027212248,-0.5304087803697409,29.883945808884548,0,86,15966.999999999998,60,-29.0,-3.0,-1061.0,1,1,0,1,-1,0,75
1765315464.2646413,0.0,0.020019114017486572,0.0089948034286499,2.5471166929619824,0.01,0.01,0.0,0,-1,0,-1.0007126687703745,-0.5546805256977008,-40,-1.0007126687703745,-0.5546805256977008,-40,0,85,15978.0,60,7.0,2.0,-980.0,1,1,0,0,-1,0,75
1765315464.3060296,0.0,0.02043299674987793,0.009408686161041256,3.0006350078885946,0.01,0.01,0.0,0,-1,0,-1.0172991132234817,-0.574302801862332,-40,-1.0172991132234817,-0.574302801862332,-40,0,85,15978.0,60,7.0,2.0,-980.0,1,1,0,0,-1,0,75
1765315464.3467894,0.0,0.02084059476852417,0.009816284179687496,2.5766905023665787,0.01,0.01,0.0,0,-1,0,-1.033615488032312,-0.5918335093557723,-13.584730991957777,-1.033615488032312,-0.5918335093557723,-13.584730991957777,0,85,15974.0,60,2.0,-7.0,-1029.0,1,1,0,0,-1,0,75
1765315464.3871593,0.0,0.0212442946434021,0.010219984054565425,2.449507150709974,0.01,0.01,0.0,0,-1,0,-1.0497684646526226,-0.6084722190499258,-8.552317055099987,-1.0497684646526226,-0.6084722190499258,-8.552317055099987,0,85,15974.0,60,2.0,-7.0,-1029.0,1,1,0,0,-1,0,75
1765315464.4277847,0.0,0.021650547981262206,0.010626237392425531,2.4113521452129927,0.01,0.01,0.0,0,-1,0,-1.0660205908171034,-0.6249186384439446,-22.5213481859741,-1.0660205908171034,-0.6249186384439446,-22.5213481859741,0,85,15974.0,60,2.0,-7.0,-1029.0,1,1,0,0,-1,0,75
1765315464.4683022,0.0,0.022055723667144773,0.0110314130783081,1.4199056435636432,0.01,0.01,0.0,0,-1,0,-1.0822284153124364,-0.6412041802310934,40,-1.0822284153124364,-0.6412041802310934,40,0,85,15966.999999999998,60,-38.0,0.0,-1011.0,1,1,0,0,-1,0,75
1765315464.5087836,0.0,0.022460536956787108,0.011436226367950435,1.1224716930688383,0.01,0.01,0.0,0,-1,0,-1.0984212657221428,-0.6574281175575254,40,-1.0984212657221428,-0.6574281175575254,40,0,85,15966.999999999998,60,-38.0,0.0,-1011.0,1,1,0,0,-1,0,75
1765315464.549315,0.0,0.022865850925445554,0.011841540336608882,1.8697415079203967,0.01,0.01,0.0,0,-1,0,-1.1146339519980852,-0.6736532386001586,-40,-1.1146339519980852,-0.6736532386001586,-40,0,84,15972.999999999998,60,-45.0,-27.0,-965.0,1,1,0,0,-1,0,75
1765315464.5898397,0.0,0.02327109813690185,0.012246787548065182,2.0939224523758644,0.01,0.01,0.0,0,-1,0,-1.130843891468179,-0.6898681519769289,-40,-1.130843891468179,-0.6898681519769289,-40,0,84,15972.999999999998,60,-45.0,-27.0,-965.0,1,1,0,0,-1,0,75
1765315464.630329,0.0,0.02367599010467529,0.012651679515838619,2.1611767357125045,0.01,0.01,0.0,0,-1,0,-1.147039590583854,-0.7060658406552732,-40,-1.147039590583854,-0.7060658406552732,-40,0,84,15972.999999999998,60,-45.0,-27.0,-965.0,1,1,0,0,-1,0,75
1765315464.6710186,0.0,0.02408288717269897,0.013058576583862301,1.6213530207137514,0.01,0.01,0.0,0,-1,0,-1.1633154814666953,-0.7223425273631836,40,-1.1633154814666953,-0.7223425273631836,40,0,84,15969.0,60,-45.0,1.0,-1059.0,1,1,0,0,-1,0,75
1765315464.7113311,0.0,0.024486012458801266,0.013461701869964596,1.4594059062141254,0.01,0.01,0.0,0,-1,0,-1.1794404961755454,-0.7384678604020606,33.909188373755526,-1.1794404961755454,-0.7384678604020606,33.909188373755526,0,84,15969.0,60,-45.0,1.0,-1059.0,1,1,0,0,-1,0,75
1765315464.7521646,0.0,0.024894347190856928,0.01387003660202026,1.127321771863983,0.01,0.01,0.0,0,-1,0,-1.1957738867636745,-0.7548013783222012,40,-1.1957738867636745,-0.7548013783222012,40,0,83,15966.999999999998,60,-47.0,-1.0,-860.0,1,1,0,0,-1,0,75
1765315464.7929254,0.0,0.025301954746246334,0.014277644157409664,1.0276965315589401,0.01,0.01,0.0,0,-1,0,-1.2120781895016126,-0.7711057319929426,28.412403539024986,-1.2120781895016126,-0.7711057319929426,28.412403539024986,0,83,15966.999999999998,60,-47.0,-1.0,-860.0,1,1,0,0,-1,0,75
1765315464.8333578,0.0,0.02570627927780151,0.01468196868896484,0.9978089594674274,0.01,0.01,0.0,0,-1,0,-1.2282511709727642,-0.7872787338372161,6.9081042196150175,-1.2282511709727642,-0.7872787338372161,6.9081042196150175,0,83,15966.999999999998,60,-47.0,-1.0,-860.0,1,1,0,0,-1,0,75
1765315464.8739603,0.0,0.02611230373382568,0.01508799314498901,1.5453426878402283,0.01,0.01,0.0,0,-1,0,-1.2444921492973091,-0.8035197203110092,-40,-1.2444921492973091,-0.8035197203110092,-40,0,82,15971.0,60,-26.0,-1.0,-1054.0,1,1,0,0,-1,0,75
1765315464.9146378,0.0,0.02651907920837402,0.01508799314498901,0.7296028063518138,0.01,0.0,0.0,0,-1,0,-1.2607631683126734,-0.6835197236041399,40,-1.2607631683126734,-0.6835197236041399,40,0,82,15963.999999999998,60,60.0,-29.0,-1009.0,1,0,0,0,-1,0,75
1765315464.9557858,0.0,0.026930558681488033,0.01508799314498901,0.4848808419052895,0.01,0.0,0.0,0,-1,0,-1.2772223472506061,-0.6355197249213922,40,-1.2772223472506061,-0.6355197249213922,40,0,82,15963.999999999998,60,60.0,-29.0,-1009.0,1,0,0,0,-1,0,75
1765315464.9970498,0.0,0.026930558681488033,0.015500633716583247,0.41146425257133223,0.0,0.01,0.0,0,-1,0,-1.157222347255955,-0.7528253483120625,36.93630700072937,-1.157222347255955,-0.7528253483120625,36.93630700072937,0,82,15963.999999999998,60,-36.0,-9.0,-908.0,0,1,0,0,-1,0,75
1765315465.0377972,0.0,0.026930558681488033,0.015908107757568356,0.389439275771145,0.0,0.01,0.0,0,-1,0,-1.1092223472580949,-0.8094443101622277,16.5445647294932,-1.1092223472580949,-0.8094443101622277,16.5445647294932,0,82,15963.999999999998,60,-36.0,-9.0,-908.0,0,1,0,0,-1,0,75
1765315465.0784261,0.0,0.026930558681488033,0.01631439685821533,0.38283178273108887,0.0,0.01,0.0,0,-1,0,-1.0900223472589508,-0.841823874272411,7.781781726905148,-1.0900223472589508,-0.841823874272411,7.781781726905148,0,82,15963.999999999998,60,-36.0,-9.0,-908.0,0,1,0,0,-1,0,75
1765315465.118944,0.0,0.026930558681488033,0.01671957492828369,1.217349534819072,0.0,0.01,0.0,1,-1,0,-1.082342347259293,-0.8644821971088669,-40,-1.082342347259293,-0.8644821971088669,-40,0,81,15969.999999999998,60,-39.0,-34.0,-1045.0,0,1,0,1,-1,0,75
1765315465.1597903,0.0,0.026930558681488033,0.01712803840637207,1.467704860445467,0.0,0.01,0.0,1,-1,0,-1.07927034725943,-0.8834012162458906,-40,-1.07927034725943,-0.8834012162458906,-40,0,81,15969.999999999998,60,-39.0,-34.0,-1045.0,0,1,0,1,-1,0,75
1765315465.2008972,0.0,0.026930558681488033,0.017539107799530027,1.5428114581333854,0.0,0.01,0.0,1,-1,0,-1.0780415472594846,-0.9008761839776038,-40,-1.0780415472594846,-0.9008761839776038,-40,0,81,15969.999999999998,60,-39.0,-34.0,-1045.0,0,1,0,1,-1,0,75
1765315465.2418985,0.0,0.026930558681488033,0.017949120998382567,0.44884343744001565,0.0,0.01,0.0,1,-1,0,-1.0775500272595067,-0.9176895887338639,40,-1.0775500272595067,-0.9176895887338639,40,0,82,15962.0,60,-51.0,-32.0,-1016.0,0,1,0,1,-1,0,75
1765315465.2823658,0.0,0.026930558681488033,0.018353793621063232,0.12065303123200471,0.0,0.01,0.0,1,-1,0,-1.0773534192595153,-0.9340416443619544,40,-1.0773534192595153,-0.9340416443619544,40,0,82,15962.0,60,-51.0,-32.0,-1016.0,0,1,0,1,-1,0,75
1765315465.3234222,0.0,0.027341122627258296,0.018764357566833496,1.1456959093693466,0.01,0.01,0.0,0,0,0,-1.2136973338903294,-0.9505302624811097,-40,-1.2136973338903294,-0.9505302624811097,-40,0,83,15969.999999999998,60,-70.0,-2.0,-924.0,1,1,0,0,0,0,75
1765315465.3643594,0.0,0.027750494480133052,0.01917372941970825,1.4532087728105494,0.01,0.01,0.0,0,0,0,-1.278040750725321,-0.9669315607114379,-40,-1.278040750725321,-0.9669315607114379,-40,0,83,15969.999999999998,60,-70.0,-2.0,-924.0,1,1,0,0,0,0,75
1765315465.4057686,0.0,0.02816458702087402,0.01958782196044922,0.2889626318434195,0.01,0.01,0.0,0,0,0,-1.3137918694429604,-0.9835058319872121,40,-1.3137918694429604,-0.9835058319872121,40,0,84,15961.000000000002,60,-18.0,-49.0,-1057.0,1,1,0,0,0,0,75
1765315465.4466221,0.0,0.02857312202453613,0.01999635696411133,-0.060311210446719485,0.01,0.01,0.0,0,0,0,-1.3378082364246453,-0.9998514599921507,40,-1.3378082364246453,-0.9998514599921507,40,0,84,15961.000000000002,60,-18.0,-49.0,-1057.0,1,1,0,0,0,0,75
1765315465.4874442,0.0,0.028981342315673824,0.020404577255249023,-0.16509336313376122,0.01,0.01,0.0,0,0,0,-1.3572070348042329,-1.0161819627810398,40,-1.3572070348042329,-1.0161819627810398,40,0,84,15961.000000000002,60,-18.0,-49.0,-1057.0,1,1,0,0,0,0,75
1765315465.527903,0.0,0.029385931491851803,0.020809166431427002,-0.19302800893987374,0.01,0.01,0.0,0,0,0,-1.3746185965449842,-1.0323662062855117,34.01304959015947,-1.3746185965449842,-1.0323662062855117,34.01304959015947,0,85,15961.000000000002,60,-3.0,0.0,-988.0,1,1,0,0,0,0,75
1765315465.5684822,0.0,0.029791722297668452,0.02121495723724365,-0.20140840268170748,0.01,0.01,0.0,0,0,0,-1.3913414266551025,-1.0485981091011183,21.519555225516832,-1.3913414266551025,-1.0485981091011183,21.519555225516832,0,85,15961.000000000002,60,-3.0,0.0,-988.0,1,1,0,0,0,0,75
1765315465.6089315,0.0,0.03019621610641479,0.02161945104598999,-0.2039225208042576,0.01,0.01,0.0,0,0,0,-1.4077176581559379,-1.064777969684149,16.760949292708126,-1.4077176581559379,-1.064777969684149,16.760949292708126,0,85,15961.000000000002,60,-3.0,0.0,-988.0,1,1,0,0,0,0,75
1765315465.6497571,0.0,0.030604472160339354,0.022027707099914553,-0.7611767562412772,0.01,0.01,0.0,0,0,0,-1.424126491973313,-1.0811082551344022,40,-1.424126491973313,-1.0811082551344022,40,0,86,15957.0,60,-20.0,2.0,-1063.0,1,1,0,0,0,0,74
1765315465.6901286,0.0,0.03100818634033203,0.02243142127990723,-0.9283530268723832,0.01,0.01,0.0,0,0,0,-1.440306495837177,-1.0972568396514175,40,-1.440306495837177,-1.0972568396514175,40,0,86,15957.0,60,-20.0,2.0,-1063.0,1,1,0,0,0,0,74
1765315465.730834,0.0,0.03100818634033203,0.022838475704193117,-1.1150059080617152,0.0,0.01,0.01,0,0,0,-1.3203190705028394,-1.1135390235497757,40,-1.3203190705028394,-1.1135390235497757,40,0,87,15956.0,60,-31.0,10.0,-911.0,0,1,1,0,0,0,74
1765315465.7716427,0.0,0.03100818634033203,0.023246562480926516,-1.1710017724185147,0.0,0.01,0.01,0,0,0,-1.2723241003691044,-1.129862497389881,40,-1.2723241003691044,-1.129862497389881,40,0,87,15956.0,60,-31.0,10.0,-911.0,0,1,1,0,0,0,74
1765315465.811967,0.0,0.03100818634033203,0.023649804592132572,-1.1878005317255547,0.0,0.01,0.01,0,0,0,-1.2531261123156106,-1.1459921829464317,40,-1.2531261123156106,-1.1459921829464317,40,0,87,15956.0,60,-31.0,10.0,-911.0,0,1,1,0,0,0,74
1765315465.8524354,0.0,0.03141287088394165,0.02405448913574219,0.07065984048233359,0.01,0.01,0.01,0,0,0,-1.3816342988385986,-1.1621795651341387,-40,-1.3816342988385986,-1.1621795651341387,-40,0,88,15965.0,60,-12.0,-16.0,-1068.0,1,1,1,0,0,0,74
1765315465.893198,0.0,0.03182049751281738,0.024462115764617924,0.44819795214470015,0.01,0.01,0.01,0,0,0,-1.4428676859050675,-1.178484630466498,-40,-1.4428676859050675,-1.178484630466498,-40,0,88,15965.0,60,-12.0,-16.0,-1068.0,1,1,1,0,0,0,74
1765315465.933586,0.0,0.032224376201629636,0.02486599445343018,1.0094593856434102,0.01,0.01,0.01,0,0,0,-1.4769941622221336,-1.19463977808992,-40,-1.4769941622221336,-1.19463977808992,-40,0,90,15968.0,70,-28.0,-25.0,-1009.0,1,1,1,0,0,0,74
1765315465.974187,0.0,0.03263038635253906,0.025272004604339603,1.1778378156930231,0.01,0.01,0.01,0,0,0,-1.5004230997643413,-1.2108801841546688,-40,-1.5004230997643413,-1.2108801841546688,-40,0,90,15968.0,70,-28.0,-25.0,-1009.0,1,1,1,0,0,0,74
1765315466.0155036,0.0,0.03304355382919311,0.025685172080993655,1.228351344707907,0.01,0.01,0.01,0,0,0,-1.5198252114328368,-1.22740688323218,-40,-1.5198252114328368,-1.22740688323218,-40,0,90,15968.0,70,-28.0,-25.0,-1009.0,1,1,1,0,0,0,74
1765315466.0562437,0.0,0.03304355382919311,0.02609257221221924,1.2505054034123724,0.0,0.01,0.01,0,0,0,-1.4009753764737694,-1.2437028884857426,-27.669925784672674,-1.4009753764737694,-1.2437028884857426,-27.669925784672674,0,92,15968.0,70,55.0,-47.0,-911.0,0,1,1,0,0,0,74
1765315466.0969615,0.0,0.03304355382919311,0.026499750614166262,1.257151621023712,0.0,0.01,0.01,0,0,0,-1.3534354424901425,-1.2599900245654398,-20.083561012336766,-1.3534354424901425,-1.2599900245654398,-20.083561012336766,0,92,15968.0,70,55.0,-47.0,-911.0,0,1,1,0,0,0,74
1765315466.1372488,0.0,0.03304355382919311,0.02690262317657471,2.9426454863073683,0.0,0.01,0.0,1,0,0,-1.3344194688966917,-1.2761049270625044,-40,-1.3344194688966917,-1.2761049270625044,-40,0,93,15980.000000000002,70,-15.0,-31.0,-853.0,0,1,0,1,0,0,74
1765315466.1776693,0.0,0.03304355382919311,0.027306828498840335,3.4482936458924653,0.0,0.01,0.0,1,0,0,-1.3268130794593114,-1.2922731399534197,-40,-1.3268130794593114,-1.2922731399534197,-40,0,93,15980.000000000002,70,-15.0,-31.0,-853.0,0,1,0,1,0,0,74
1765315466.2185547,0.0,0.03304355382919311,0.02771568298339844,3.599988093767994,0.0,0.01,0.0,1,0,0,-1.3237705236843593,-1.3086273193358604,-40,-1.3237705236843593,-1.3086273193358604,-40,0,93,15980.000000000002,70,-15.0,-31.0,-853.0,0,1,0,1,0,0,74
1765315466.2599092,0.0,0.03304355382919311,0.028129227161407474,3.785496428130398,0.0,0.01,0.0,1,0,0,-1.3225535013743783,-1.3251690864562677,-40,-1.3225535013743783,-1.3251690864562677,-40,0,93,15981.0,70,53.0,-27.0,-1001.0,0,1,0,1,0,0,74
1765315466.3009577,0.0,0.03304355382919311,0.028539712429046633,3.8411489284391194,0.0,0.01,0.0,1,0,0,-1.322066692450386,-1.3415884971618526,-40,-1.322066692450386,-1.3415884971618526,-40,0,93,15981.0,70,53.0,-27.0,-1001.0,0,1,0,1,0,0,74
1765315466.3416138,0.0,0.03304355382919311,0.028946273326873783,3.2978446785319906,0.0,0.01,0.0,1,0,0,-1.3218719688807892,-1.3578509330749466,29.78805133569005,-1.3218719688807892,-1.3578509330749466,29.78805133569005,0,93,15977.000000000002,70,-85.0,-20.0,-929.0,0,1,0,1,0,0,74
1765315466.382129,0.0,0.03304355382919311,0.02935142517089844,3.134853403559852,0.0,0.01,0.0,1,0,0,-1.3217940794529504,-1.374057006835936,1.1871887411666293,-1.3217940794529504,-1.374057006835936,1.1871887411666293,0,93,15977.000000000002,70,-85.0,-20.0,-929.0,0,1,0,1,0,0,74
1765315466.423375,0.0005671977996826172,0.03304355382919311,0.02976955652236939,3.08595602106821,0.0,0.01,0.0,1,0,0,-1.321762923681815,-1.390782260894775,-27.367858848215334,-1.321762923681815,-1.390782260894775,-27.367858848215334,0,93,15977.000000000002,70,-85.0,-20.0,-929.0,0,1,0,1,0,0,74
1765315466.464476,0.0,0.03344889402389526,0.02976955652236939,3.067786806320718,0.01,0.0,0.0,0,0,0,-1.4579640691614462,-1.2707822608947754,-40,-1.4579640691614462,-1.2707822608947754,-40,0,92,15977.000000000002,70,-2.0,-5.0,-897.0,1,0,0,0,0,0,74
1765315466.5052927,0.0,0.03385705947875976,0.02976955652236939,3.0623360418964705,0.01,0.0,0.0,0,0,0,-1.522285702432645,-1.2227822608947756,-40,-1.522285702432645,-1.2227822608947756,-40,0,92,15977.000000000002,70,-2.0,-5.0,-897.0,1,0,0,0,0,0,74
1765315466.5460103,0.0,0.034264235496520995,0.02976955652236939,1.5137008125689413,0.01,0.0,-0.01,0,0,0,-1.557770749173742,-1.2035822608947755,40,-1.557770749173742,-1.2035822608947755,40,0,90,15966.0,70,-46.0,-9.0,-996.0,1,0,-1,0,0,0,74
1765315466.5868566,0.0,0.034672698974609374,0.02976955652236939,1.0491102437706825,0.01,0.0,-0.01,0,0,0,-1.5817884907095359,-1.1959022608947756,40,-1.5817884907095359,-1.1959022608947756,40,0,90,15966.0,70,-46.0,-9.0,-996.0,1,0,-1,0,0,0,74
1765315466.628145,0.0,0.0350855827331543,0.02976955652236939,0.9097330731312048,0.01,0.0,-0.01,0,0,0,-1.601375522016237,-1.1928302608947756,40,-1.601375522016237,-1.1928302608947756,40,0,90,15966.0,70,-46.0,-9.0,-996.0,1,0,-1,0,0,0,74
1765315466.6693912,0.0,0.0350855827331543,0.02976955652236939,0.16441992193961613,0.0,0.0,-0.01,0,0,0,-1.482604194402198,-1.1916014608947756,40,-1.482604194402198,-1.1916014608947756,40,0,89,15961.000000000002,70,-21.0,-9.0,-1023.0,0,0,-1,0,0,0,74
1765315466.7104046,0.0,0.0350855827331543,0.02976955652236939,-0.059174023417860495,0.0,0.0,-0.01,0,0,0,-1.4350956633565823,-1.1911099408947756,40,-1.4350956633565823,-1.1911099408947756,40,0,89,15961.000000000002,70,-21.0,-9.0,-1023.0,0,0,-1,0,0,0,74
1765315466.7512763,0.0,0.035494298934936525,0.02976955652236939,-0.27325220702535813,0.01,0.0,-0.01,0,0,0,-1.552440899009625,-1.1909133328947756,40,-1.552440899009625,-1.1909133328947756,40,0,87,15960.0,70,-47.0,0.0,-1119.0,1,0,-1,0,0,0,74
1765315466.791553,0.0,0.035897066593170164,0.02976955652236939,-0.3374756621076075,0.01,0.0,-0.01,0,0,0,-1.6089502403716711,-1.1908346896947755,40,-1.6089502403716711,-1.1908346896947755,40,0,87,15960.0,70,-47.0,0.0,-1119.0,1,0,-1,0,0,0,74
1765315466.8322442,0.0,0.03630397796630859,0.02976955652236939,-0.35674269863228225,0.01,0.0,-0.01,0,0,0,-1.6413861493102888,-1.1908032324147755,29.326597110179534,-1.6413861493102888,-1.1908032324147755,29.326597110179534,0,87,15960.0,70,-47.0,0.0,-1119.0,1,0,-1,0,0,0,74
1765315466.8730543,0.0,0.03671207904815674,0.02976955652236939,-0.66702280958943,0.01,0.0,0.0,0,-1,0,-1.6641739741894483,-1.1907906495027756,40,-1.6641739741894483,-1.1907906495027756,40,0,86,15958.000000000002,60,46.0,-45.0,-1119.0,1,0,0,0,-1,0,74
1765315466.9134789,0.0,0.03711632490158081,0.02976955652236939,-0.7601068428765744,0.01,0.0,0.0,0,-1,0,-1.682929320968504,-1.1907856163379755,40,-1.682929320968504,-1.1907856163379755,40,0,86,15958.000000000002,60,46.0,-45.0,-1119.0,1,0,0,0,-1,0,74
1765315466.954004,0.0,0.03711632490158081,0.02976955652236939,-0.22803205286297235,0.0,0.0,0.0,0,-1,0,-1.563963526025341,-1.1907836030720556,-40,-1.563963526025341,-1.1907836030720556,-40,0,86,15962.0,60,-16.0,-47.0,-1119.0,0,0,0,0,-1,0,74
1765315466.9942698,0.0,0.03711632490158081,0.02976955652236939,-0.06840961585889171,0.0,0.0,0.0,0,-1,0,-1.516377208048076,-1.1907827977656875,-40,-1.516377208048076,-1.1907827977656875,-40,0,86,15962.0,60,-16.0,-47.0,-1119.0,0,0,0,0,-1,0,74
1765315467.0348504,0.0,0.03711632490158081,0.02976955652236939,-0.020522884757667517,0.0,0.0,0.0,0,-1,0,-1.4973426808571697,-1.1907824756431404,-13.550352771002817,-1.4973426808571697,-1.1907824756431404,-13.550352771002817,0,86,15962.0,60,-16.0,-47.0,-1119.0,0,0,0,0,-1,0,74
1765315467.0763643,0.0,0.03711632490158081,0.030184695720672613,0.2773431345724451,0.0,0.01,0.0,1,0,0,-1.4897288699808073,-1.3273879147262504,-40,-1.4897288699808073,-1.3273879147262504,-40,0,87,15963.999999999998,60,-20.0,-2.0,-970.0,0,1,0,1,0,0,74
1765315467.1174986,0.0,0.03711632490158081,0.03059603929519654,0.3667029403714789,0.0,0.01,0.0,1,0,0,-1.4866833456302624,-1.3918416061676002,-29.76493573203451,-1.4866833456302624,-1.3918416061676002,-29.76493573203451,0,87,15963.999999999998,60,-20.0,-2.0,-970.0,0,1,0,1,0,0,74
1765315467.1586795,0.0,0.03711632490158081,0.031007847785949713,-0.14198911788855634,0.0,0.01,0.01,1,0,0,-1.4854651358900444,-1.427513925181884,40,-1.4854651358900444,-1.427513925181884,40,0,88,15960.0,70,-19.0,5.0,-912.0,0,1,1,1,0,0,74
1765315467.1989837,0.0,0.03711632490158081,0.031410889625549325,-0.2945967353665669,0.0,0.01,0.01,1,0,0,-1.4849778519939572,-1.451315590519532,40,-1.4849778519939572,-1.451315590519532,40,0,88,15960.0,70,-19.0,5.0,-912.0,0,1,1,1,0,0,74
1765315467.2397504,0.0,0.03711632490158081,0.031818556785583506,-0.34037902060997005,0.0,0.01,0.01,1,0,0,-1.4847829384355224,-1.4706942736223643,39.52675707277299,-1.4847829384355224,-1.4706942736223643,39.52675707277299,0,88,15960.0,70,-19.0,5.0,-912.0,0,1,1,1,0,0,74
1765315467.2807493,0.0,0.03711632490158081,0.032228546142578134,-1.0541137061827364,0.0,0.01,0.0,1,0,0,-1.4847049730121484,-1.4883226465827346,40,-1.4847049730121484,-1.4883226465827346,40,0,88,15955.000000000002,70,-35.0,8.0,-875.0,0,1,0,1,0,0,74
1765315467.3219666,0.0,0.03711632490158081,0.03264071941375733,-1.2682341118545661,0.0,0.01,0.0,1,0,0,-1.4846737868427988,-1.505301096902137,40,-1.4846737868427988,-1.505301096902137,40,0,88,15955.000000000002,70,-35.0,8.0,-875.0,0,1,0,1,0,0,74
1765315467.3634088,0.0,0.03711632490158081,0.03264071941375733,-0.63597023355637,0.0,0.0,0.0,1,0,0,-1.484661312375059,-1.3854977046910308,-40,-1.484661312375059,-1.3854977046910308,-40,0,87,15960.0,70,5.0,-49.0,-1108.0,0,0,0,1,0,0,74
1765315467.4040465,0.0,0.03711632490158081,0.03264071941375733,-0.44629107006691104,0.0,0.0,0.0,1,0,0,-1.484656322587963,-1.3375763478065883,-39.0388021812463,-1.484656322587963,-1.3375763478065883,-39.0388021812463,0,87,15960.0,70,5.0,-49.0,-1108.0,0,0,0,1,0,0,74
1765315467.4447544,0.0,0.03711632490158081,0.03264071941375733,-0.38938732102007334,0.0,0.0,0.0,1,0,0,-1.4846543266731247,-1.3184078050528114,-9.386644582516702,-1.4846543266731247,-1.3184078050528114,-9.386644582516702,0,87,15960.0,70,5.0,-49.0,-1108.0,0,0,0,1,0,0,74
1765315467.4853528,0.0,0.03711632490158081,0.03264071941375733,0.18768380369372328,0.0,0.0,0.0,1,0,0,-1.4846535283071893,-1.3107403879513007,-40,-1.4846535283071893,-1.3107403879513007,-40,0,87,15963.999999999998,70,-55.0,-22.0,-1094.0,0,0,0,1,0,0,74
1765315467.5257454,0.0,0.03711632490158081,0.03264071941375733,0.3608051411078623,0.0,0.0,0.0,1,0,0,-1.484653208960815,-1.3076734211106964,-40,-1.484653208960815,-1.3076734211106964,-40,0,87,15963.999999999998,70,-55.0,-22.0,-1094.0,0,0,0,1,0,0,74
1765315467.5663662,0.0,0.03711632490158081,0.03304692745208741,-0.2837584576676413,0.0,0.01,0.0,1,0,0,-1.4846530812222656,-1.4426949559076585,40,-1.4846530812222656,-1.4426949559076585,40,0,88,15959.0,70,-43.0,-21.0,-976.0,0,1,0,1,0,0,74
1765315467.6069417,0.0,0.03711632490158081,0.033452682495117195,-0.47712753730029245,0.0,0.01,0.0,1,0,0,-1.4846530301268457,-1.5064344429343515,40,-1.4846530301268457,-1.5064344429343515,40,0,88,15959.0,70,-43.0,-21.0,-976.0,0,1,0,1,0,0,74
1765315467.6474483,0.0,0.03711632490158081,0.03385774850845338,-0.5351382611900878,0.0,0.01,0.0,1,0,0,-1.4846530096886776,-1.5416407975900008,40,-1.4846530096886776,-1.5416407975900008,40,0,88,15959.0,70,-43.0,-21.0,-976.0,0,1,0,1,0,0,74
1765315467.6885958,0.0,0.03711632490158081,0.03426922321319581,0.007458521642973642,0.0,0.01,0.0,1,0,0,-1.4846530015134105,-1.565701271428579,-40,-1.4846530015134105,-1.565701271428579,-40,0,88,15963.0,70,18.0,-23.0,-882.0,0,1,0,1,0,0,73
1765315467.7292104,0.0,0.03711632490158081,0.03426922321319581,0.1667375564928921,0.0,0.0,0.0,1,0,0,-1.4846529982433037,-1.448741865688131,-40,-1.4846529982433037,-1.448741865688131,-40,0,87,15963.0,70,40.0,-53.0,-1095.0,0,0,0,1,0,0,73
1765315467.7697537,0.0,0.03711632490158081,0.03426922321319581,0.21452126694786763,0.0,0.0,0.0,1,0,0,-1.4846529969352609,-1.401958103391952,-18.318321509626898,-1.4846529969352609,-1.401958103391952,-18.318321509626898,0,87,15963.0,70,40.0,-53.0,-1095.0,0,0,0,1,0,0,73
1765315467.8104882,0.0,0.03711632490158081,0.03426922321319581,0.3688563800841056,0.0,0.0,0.0,1,0,0,-1.4846529964120438,-1.3832445984734802,-31.1071184119614,-1.4846529964120438,-1.3832445984734802,-31.1071184119614,0,87,15963.999999999998,70,6.0,-46.0,-1054.0,0,0,0,1,0,0,73
1765315467.8511977,0.0,0.03711632490158081,0.03426922321319581,0.415156914024977,0.0,0.0,0.0,1,0,0,-1.484652996202757,-1.3757591965060916,-16.383514883648036,-1.484652996202757,-1.3757591965060916,-16.383514883648036,0,87,15963.999999999998,70,6.0,-46.0,-1054.0,0,0,0,1,0,0,73
1765315467.8922763,0.0,0.03711632490158081,0.03426922321319581,0.4290470742072384,0.0,0.0,0.0,1,0,0,-1.4846529961190422,-1.372765035719136,-6.372009477925939,-1.4846529961190422,-1.372765035719136,-6.372009477925939,0,87,15963.999999999998,70,6.0,-46.0,-1054.0,0,0,0,1,0,0,73
1765315467.9329388,0.0,0.03711632490158081,0.03426922321319581,1.1332141222621714,0.0,0.0,0.0,1,0,0,-1.4846529960855563,-1.371567371404354,-40,-1.4846529960855563,-1.371567371404354,-40,0,87,15969.0,70,-50.0,0.0,-924.0,0,0,0,1,0,0,73
1765315467.9743009,0.0,0.03711632490158081,0.03426922321319581,1.3444642366786514,0.0,0.0,0.0,1,0,0,-1.484652996072162,-1.3710883056784409,-40,-1.484652996072162,-1.3710883056784409,-40,0,87,15969.0,70,-50.0,0.0,-924.0,0,0,0,1,0,0,73
1765315468.0147955,0.0,0.03711632490158081,0.03426922321319581,0.9843392710035954,0.0,0.0,0.0,1,0,0,-1.4846529960668042,-1.370896679388076,30.719507837674556,-1.4846529960668042,-1.370896679388076,30.719507837674556,0,86,15966.0,70,-15.0,-5.0,-1025.0,0,0,0,1,0,0,73
1765315468.0552003,0.0,0.03711632490158081,0.03426922321319581,0.8763017813010786,0.0,0.0,0.0,1,0,0,-1.484652996064661,-1.3708200288719297,23.312997134830873,-1.484652996064661,-1.3708200288719297,23.312997134830873,0,86,15966.0,70,-15.0,-5.0,-1025.0,0,0,0,1,0,0,73
1765315468.0956635,0.0,0.03711632490158081,0.03426922321319581,0.8438905343903236,0.0,0.0,0.0,1,0,0,-1.484652996063804,-1.3707893686654713,7.980936573436166,-1.484652996063804,-1.3707893686654713,7.980936573436166,0,86,15966.0,70,-15.0,-5.0,-1025.0,0,0,0,1,0,0,73
1765315468.13641,0.0,0.03711632490158081,0.03426922321319581,0.41066716031709716,0.0,0.0,0.0,2,-1,0,-1.4846529960634611,-1.370777104582888,40,-1.4846529960634611,-1.370777104582888,40,0,85,15963.0,70,-36.0,28.0,-919.0,0,0,0,2,-1,0,73
1765315468.17748,0.0,0.03711632490158081,0.03426922321319581,0.28070014809512916,0.0,0.0,0.0,2,-1,0,-1.484652996063324,-1.3707721989498547,40,-1.484652996063324,-1.3707721989498547,40,0,85,15963.0,70,-36.0,28.0,-919.0,0,0,0,2,-1,0,73
1765315468.2182407,0.0,0.037523932456970215,0.03426922321319581,0.9172100444285388,0.01,0.0,0.0,1,-1,0,-1.6209572982788456,-1.3707702366966412,-40,-1.6209572982788456,-1.3707702366966412,-40,0,84,15968.0,60,-5.0,17.0,-1039.0,1,0,0,1,-1,0,73
1765315468.2588596,0.0,0.03793012142181396,0.03426922321319581,1.1081630133285618,0.01,0.0,0.0,1,-1,0,-1.6852048568725726,-1.370769451795356,-40,-1.6852048568725726,-1.370769451795356,-40,0,84,15968.0,60,-5.0,17.0,-1039.0,1,0,0,1,-1,0,73
1765315468.299489,0.0,0.038336415290832516,0.03426922321319581,1.1654489039985687,0.01,0.0,0.0,1,-1,0,-1.720656611633306,-1.3707691378348419,-40,-1.720656611633306,-1.3707691378348419,-40,0,84,15968.0,60,-5.0,17.0,-1039.0,1,0,0,1,-1,0,73
1765315468.3402503,0.0,0.0387440276145935,0.03426922321319581,1.042634671199316,0.01,0.0,0.0,1,-1,0,-1.7446411045837418,-1.3707690122506362,1.7355479888100227,-1.7446411045837418,-1.3707690122506362,1.7355479888100227,0,84,15966.999999999998,60,30.0,-31.0,-1073.0,1,0,0,1,-1,0,73
1765315468.3810985,0.0,0.039152510166168206,0.03426922321319581,1.0057904013595402,0.01,0.0,0.0,1,-1,0,-1.7640524066467282,-1.3707689620169539,-0.025482346115254018,-1.7640524066467282,-1.3707689620169539,-0.025482346115254018,0,84,15966.999999999998,60,30.0,-31.0,-1073.0,1,0,0,1,-1,0,73
1765315468.4214244,0.0,0.0395557689666748,0.03426922321319581,0.5712371204076074,0.01,0.0,0.0,1,-1,0,-1.781411558666993,-1.370768941923481,40,-1.781411558666993,-1.370768941923481,40,0,83,15963.999999999998,60,5.0,-19.0,-851.0,1,0,0,1,-1,0,73
1765315468.4619293,0.0,0.039960818290710444,0.03426922321319581,0.44087113612202755,0.01,0.0,0.0,1,-1,0,-1.7981050516284176,-1.3707689338860918,40,-1.7981050516284176,-1.3707689338860918,40,0,83,15963.999999999998,60,5.0,-19.0,-851.0,1,0,0,1,-1,0,73
1765315468.5023286,0.0,0.04036481142044067,0.03426922321319581,0.4017613408363536,0.01,0.0,0.0,1,-1,0,-1.814461384817627,-1.3707689306711361,22.561576405441837,-1.814461384817627,-1.3707689306711361,22.561576405441837,0,83,15963.999999999998,60,5.0,-19.0,-851.0,1,0,0,1,-1,0,73
1765315468.5430374,0.0,0.040771899223327634,0.03426922321319581,-0.16997159774909387,0.01,0.0,0.0,1,-2,0,-1.8308235401331063,-1.370768929385154,40,-1.8308235401331063,-1.370768929385154,40,0,83,15960.0,60,16.0,-23.0,-958.0,1,0,0,1,-2,0,73
1765315468.5835612,0.0,0.04117713689804077,0.03426922321319581,-0.3414914793247281,0.01,0.0,0.0,1,-2,0,-1.8470645044016312,-1.370768928870761,40,-1.8470645044016312,-1.370768928870761,40,0,83,15960.0,60,16.0,-23.0,-958.0,1,0,0,1,-2,0,73
1765315468.6241736,0.0,0.04117713689804077,0.03426922321319581,-0.6764474437971638,0.0,0.0,0.0,1,-1,0,-1.727077087313631,-1.3707689286650038,40,-1.727077087313631,-1.3707689286650038,40,0,82,15958.000000000002,60,0.0,-27.0,-1055.0,0,0,0,1,-1,0,73
1765315468.6648984,0.0,0.04117713689804077,0.03426922321319581,-0.7769342331388945,0.0,0.0,0.0,1,-1,0,-1.6790821204784308,-1.370768928582701,40,-1.6790821204784308,-1.370768928582701,40,0,82,15958.000000000002,60,0.0,-27.0,-1055.0,0,0,0,1,-1,0,73
1765315468.7052817,0.0,0.04117713689804077,0.03426922321319581,-0.8070802699414138,0.0,0.0,0.0,1,-1,0,-1.6598841337443506,-1.3707689285497797,40,-1.6598841337443506,-1.3707689285497797,40,0,82,15958.000000000002,60,0.0,-27.0,-1055.0,0,0,0,1,-1,0,73
1765315468.7460618,0.0,0.04117713689804077,0.03467702388763429,-0.8161240809821695,0.0,0.01,0.0,2,-1,0,-1.6522049390507187,-1.5070809555141504,33.049716667820306,-1.6522049390507187,-1.5070809555141504,33.049716667820306,0,82,15958.000000000002,60,-27.0,-34.0,-1104.0,0,1,0,2,-1,0,73
1765315468.786488,0.0,0.04117713689804077,0.0350812864303589,-0.8188372242943962,0.0,0.01,0.0,2,-1,0,-1.6491332611732659,-1.571251457217868,28.864708789733076,-1.6491332611732659,-1.571251457217868,28.864708789733076,0,82,15958.000000000002,60,-27.0,-34.0,-1104.0,0,1,0,2,-1,0,73
1765315468.8271213,0.0,0.04158346891403198,0.03548761844635011,-0.5361511672883189,0.01,0.01,0.01,2,-1,0,-1.7841578706619332,-1.6067047378554091,-27.229737840194886,-1.7841578706619332,-1.6067047378554091,-27.229737840194886,0,83,15960.0,60,-7.0,-33.0,-1132.0,1,1,1,2,-1,0,73
1765315468.867864,0.0,0.041990895271301266,0.035895044803619394,-0.4513453501864957,0.01,0.01,0.01,2,-1,0,-1.847963456492312,-1.6306817921453372,-9.9294249319336,-1.847963456492312,-1.6306817921453372,-9.9294249319336,0,83,15960.0,60,-7.0,-33.0,-1132.0,1,1,1,2,-1,0,73
1765315468.9086926,0.0,0.04239918231964111,0.03630333185195924,-0.4259036050559487,0.01,0.01,0.01,2,-1,0,-1.8832983510417498,-1.650085274078595,5.469236068162164,-1.8832983510417498,-1.650085274078595,5.469236068162164,0,83,15960.0,60,-7.0,-33.0,-1132.0,1,1,1,2,-1,0,73
1765315468.9493518,0.0,0.04280577421188354,0.03670992374420167,-0.13477108151678463,0.01,0.01,0.01,2,-1,0,-1.9071633917777833,-1.6675777497681568,-40,-1.9071633917777833,-1.6675777497681568,-40,0,84,15962.0,60,-7.0,-2.0,-1011.0,1,1,1,2,-1,0,73
1765315468.990101,0.0,0.04321326732635498,0.037117416858673105,-0.0474313244550354,0.01,0.01,0.01,2,-1,0,-1.9265036623751755,-1.6843689943469595,-20.26582814098381,-1.9265036623751755,-1.6843689943469595,-20.26582814098381,0,84,15962.0,60,-7.0,-2.0,-1011.0,1,1,1,2,-1,0,73
1765315469.0311975,0.0,0.04362423181533813,0.03752838134765626,-0.553229397336256,0.01,0.01,0.01,2,-1,0,-1.9441584603419153,-1.701004181906264,40,-1.9441584603419153,-1.701004181906264,40,0,86,15958.000000000002,70,5.0,-31.0,-972.0,1,1,1,2,-1,0,73
1765315469.071491,0.0,0.04402716636657714,0.03793131589889527,-0.7049688192006222,0.01,0.01,0.01,2,-1,0,-1.9607623297544416,-1.7172002071558161,40,-1.9607623297544416,-1.7172002071558161,40,0,86,15958.000000000002,70,5.0,-31.0,-972.0,1,1,1,2,-1,0,73
1765315469.1118283,0.0,0.0444305396080017,0.03833468914031983,-0.7504906457599321,0.01,0.01,0.01,2,-1,0,-1.97709185435661,-1.7333665940927951,40,-1.97709185435661,-1.7333665940927951,40,0,86,15958.000000000002,70,5.0,-31.0,-972.0,1,1,1,2,-1,0,73
1765315469.1525364,0.0,0.0444305396080017,0.03874176979064942,-0.06414719372797964,0.0,0.01,0.0,2,-1,0,-1.8571696923346848,-1.7496624030179784,-40,-1.8571696923346848,-1.7496624030179784,-40,0,86,15963.0,70,11.0,-34.0,-871.0,0,1,0,2,-1,0,73
1765315469.1933548,0.0,0.0444305396080017,0.03914995431900025,0.14175584188160611,0.0,0.01,0.0,2,-1,0,-1.8092008275259148,-1.7659948173168099,-40,-1.8092008275259148,-1.7659948173168099,-40,0,86,15963.0,70,11.0,-34.0,-871.0,0,1,0,2,-1,0,73
1765315469.2344291,0.0,0.0444305396080017,0.03914995431900025,0.9035267525644819,0.0,0.0,0.0,2,-1,0,-1.7900132816024068,-1.64599683058273,-40,-1.7900132816024068,-1.64599683058273,-40,0,86,15968.0,70,-34.0,-4.0,-1100.0,0,0,0,2,-1,0,73
1765315469.2749639,0.0,0.0444305396080017,0.03914995431900025,1.1320580257693447,0.0,0.0,0.0,2,-1,0,-1.7823382632330036,-1.5979976358890982,-40,-1.7823382632330036,-1.5979976358890982,-40,0,86,15968.0,70,-34.0,-4.0,-1100.0,0,0,0,2,-1,0,73
1765315469.315763,0.0,0.0444305396080017,0.03914995431900025,1.2006174077308036,0.0,0.0,0.0,2,-1,0,-1.7792682558852422,-1.5787979580116454,-40,-1.7792682558852422,-1.5787979580116454,-40,0,86,15968.0,70,-34.0,-4.0,-1100.0,0,0,0,2,-1,0,73
1765315469.3569055,0.0,0.0444305396080017,0.03914995431900025,1.6446852223192412,0.0,0.0,0.0,1,-1,0,-1.7780402529461377,-1.5711180868606642,-40,-1.7780402529461377,-1.5711180868606642,-40,0,87,15971.0,70,10.0,-32.0,-858.0,0,0,0,1,-1,0,73
1765315469.398273,0.0,0.0444305396080017,0.03914995431900025,1.7779055666957724,0.0,0.0,0.0,1,-1,0,-1.777549051770496,-1.5680461384002717,-40,-1.777549051770496,-1.5680461384002717,-40,0,87,15971.0,70,10.0,-32.0,-858.0,0,0,0,1,-1,0,73
1765315469.4391973,0.0,0.04483978271484374,0.03914995431900025,0.8343716700084771,0.01,0.0,0.0,2,-1,0,-1.9137222955739202,-1.5668173590161147,40,-1.9137222955739202,-1.5668173590161147,40,0,86,15963.999999999998,70,-16.0,-4.0,-934.0,1,0,0,2,-1,0,73
1765315469.4797099,0.0,0.0452449083328247,0.03914995431900025,0.5513115010022884,0.01,0.0,0.0,2,-1,0,-1.977848728105056,-1.566325847262452,40,-1.977848728105056,-1.566325847262452,40,0,86,15963.999999999998,70,-16.0,-4.0,-934.0,1,0,0,2,-1,0,73
1765315469.5202982,0.0,0.0456507921218872,0.03914995431900025,0.4663934503004319,0.01,0.0,0.0,2,-1,0,-2.013252642792315,-1.5661292425609867,40,-2.013252642792315,-1.5661292425609867,40,0,86,15963.999999999998,70,-16.0,-4.0,-934.0,1,0,0,2,-1,0,73
1765315469.5609007,0.0,0.0456507921218872,0.03914995431900025,-0.12258196490987042,0.0,0.0,0.0,2,-2,0,-1.9009200680422187,-1.5660506006804007,40,-1.9009200680422187,-1.5660506006804007,40,0,85,15960.0,70,-40.0,-20.0,-993.0,0,0,0,2,-2,0,73
1765315469.60155,0.0,0.0456507921218872,0.03914995431900025,-0.29927458947296115,0.0,0.0,0.0,2,-2,0,-1.8559870381421801,-1.5660191439281663,40,-1.8559870381421801,-1.5660191439281663,40,0,85,15960.0,70,-40.0,-20.0,-993.0,0,0,0,2,-2,0,73
1765315469.6423867,0.0,0.046059157848358144,0.0395583200454712,1.6042176231581118,0.01,0.01,-0.01,2,-2,0,-1.9743484552410027,-1.70234119028611,-40,-1.9743484552410027,-1.70234119028611,-40,0,84,15974.0,70,-29.0,11.0,-1003.0,1,1,-1,2,-2,0,72
1765315469.6827147,0.0,0.04646243810653686,0.03996160030364991,2.175265286947434,0.01,0.01,-0.01,2,-2,0,-2.031290380784146,-1.7664673675329023,-40,-2.031290380784146,-1.7664673675329023,-40,0,84,15974.0,70,-29.0,11.0,-1003.0,1,1,-1,2,-2,0,72
1765315469.7231696,0.0,0.046866986751556386,0.04036614894866944,2.3465795860842302,0.01,0.01,-0.01,2,-2,0,-2.063796612671323,-1.8018473001015392,-40,-2.063796612671323,-1.8018473001015392,-40,0,84,15974.0,70,-29.0,11.0,-1003.0,1,1,-1,2,-2,0,72
1765315469.7642255,0.0,0.046866986751556386,0.04077670812606812,2.653473875825269,0.0,0.01,0.0,2,-2,0,-1.9503263271058824,-1.8259488619046302,-40,-1.9503263271058824,-1.8259488619046302,-40,0,83,15976.0,60,-20.0,50.0,-1059.0,0,1,0,2,-2,0,72
1765315469.805109,0.0,0.046866986751556386,0.0411855435371399,2.745542162747581,0.0,0.01,0.0,2,-2,0,-1.904938212879706,-1.8453739562303582,-40,-1.904938212879706,-1.8453739562303582,-40,0,83,15976.0,60,-20.0,50.0,-1059.0,0,1,0,2,-2,0,72
1765315469.8467228,0.0,0.047283124923706045,0.04160168170928956,1.9331626488240197,0.01,0.01,0.0,2,-1,0,-2.0234284940752225,-1.8632481542694874,40,-2.0234284940752225,-1.8632481542694874,40,0,83,15969.999999999998,60,-12.0,3.0,-944.0,1,1,0,2,-1,0,72
1765315469.8875742,0.0,0.047691638469696034,0.04201019525527955,1.6894487946469512,0.01,0.01,0.0,2,-1,0,-2.080506937638633,-1.8800801645703433,40,-2.080506937638633,-1.8800801645703433,40,0,83,15969.999999999998,60,-12.0,3.0,-944.0,1,1,0,2,-1,0,72
1765315469.9287279,0.0,0.04810317516326903,0.04242173194885254,1.6163346383938306,0.01,0.01,0.0,2,-1,0,-2.113263566071077,-1.8967382196977653,13.87584472636512,-2.113263566071077,-1.8967382196977653,13.87584472636512,0,83,15969.999999999998,60,-12.0,3.0,-944.0,1,1,0,2,-1,0,72
1765315469.9698153,0.0,0.04851404905319212,0.042832605838775635,0.19090039151814925,0.01,0.01,0.0,2,-1,0,-2.13621658594381,-1.91325181024849,40,-2.13621658594381,-1.91325181024849,40,0,82,15960.0,60,21.0,-19.0,-869.0,1,1,0,2,-1,0,72
1765315470.010711,0.0,0.04892300605773924,0.043241562843322756,-0.2367298825445552,0.01,0.01,0.0,2,-1,0,-2.1551820918360205,-1.9296415444118966,40,-2.1551820918360205,-1.9296415444118966,40,0,82,15960.0,60,21.0,-19.0,-869.0,1,1,0,2,-1,0,72
1765315470.052194,0.0,0.04933783769607542,0.043656394481658936,-0.09201896476336655,0.01,0.01,-0.01,1,-2,0,-2.1728182476535967,-1.9462473915379515,32.214174211848906,-2.1728182476535967,-1.9462473915379515,32.214174211848906,0,80,15962.0,60,-41.0,27.0,-1022.0,1,1,-1,1,-2,0,72
1765315470.0933528,0.0,0.04974942445755003,0.04406798124313355,-0.048605689429009946,0.01,0.01,-0.01,1,-2,0,-2.1896988742262335,-1.96271589463398,9.700804694645345,-2.1896988742262335,-1.96271589463398,9.700804694645345,0,80,15962.0,60,-41.0,27.0,-1022.0,1,1,-1,1,-2,0,72
1765315470.133939,0.0,0.05015528678894041,0.04447384357452393,-0.035581706828702965,0.01,0.01,-0.01,1,-2,0,-2.2061002299273094,-1.9789524009444124,8.083965487939729,-2.2061002299273094,-1.9789524009444124,8.083965487939729,0,80,15962.0,60,-41.0,27.0,-1022.0,1,1,-1,1,-2,0,72
1765315470.1747706,0.0,0.05056360244750975,0.044882159233093265,-0.03167451204861087,0.01,0.01,0.0,1,-2,0,-2.2224996012482676,-1.9952858325091132,9.175355833089627,-2.2224996012482676,-1.9952858325091132,9.175355833089627,0,80,15962.0,60,0.0,-14.0,-1151.0,1,1,0,1,-2,0,72
1765315470.2155733,0.0,0.05097162961959838,0.04529018640518189,-0.030502353614583238,0.01,0.01,0.0,1,-2,0,-2.238847386123087,-2.0116072414814297,9.971514528636996,-2.238847386123087,-2.0116072414814297,9.971514528636996,0,80,15962.0,60,0.0,-14.0,-1151.0,1,1,0,1,-2,0,72
1765315470.256388,0.0,0.051379776000976554,0.04569833278656007,-0.17015070608412028,0.01,0.01,0.0,1,-1,0,-2.2551839205747237,-2.0279332255720655,37.16213754205414,-2.2551839205747237,-2.0279332255720655,37.16213754205414,0,80,15961.000000000002,60,-44.0,-7.0,-965.0,1,1,0,1,-1,0,72
1765315470.2970877,0.0,0.05178677320480346,0.046105329990386974,-0.2120452118249814,0.01,0.01,0.0,1,-1,0,-2.271468080406404,-2.0442131652593445,28.574134013631408,-2.271468080406404,-2.0442131652593445,28.574134013631408,0,80,15961.000000000002,60,-44.0,-7.0,-965.0,1,1,0,1,-1,0,72
1765315470.3379312,0.0,0.05219520807266235,0.04651376485824586,-0.22461356354723974,0.01,0.01,0.0,1,-1,0,-2.2878071837922005,-2.0605505805873814,20.946279170370744,-2.2878071837922005,-2.0605505805873814,20.946279170370744,0,80,15961.000000000002,60,-44.0,-7.0,-965.0,1,1,0,1,-1,0,72
1765315470.3795793,0.0,0.052611689567565914,0.04693024635314943,-0.6448840690639173,0.01,0.01,0.0,1,0,0,-2.3044671270569195,-2.0772098486289963,40,-2.3044671270569195,-2.0772098486289963,40,0,81,15958.000000000002,60,5.0,2.0,-1017.0,1,1,0,1,0,0,72
1765315470.420814,0.0,0.05302403688430786,0.047342593669891374,-0.7709652207189206,0.01,0.01,0.0,1,0,0,-2.320961293114028,-2.0937037445968634,40,-2.320961293114028,-2.0937037445968634,40,0,81,15958.000000000002,60,5.0,2.0,-1017.0,1,1,0,1,0,0,72
1765315470.4614859,0.0,0.053430755138397214,0.04774931192398073,-1.9252895662156764,0.01,0.01,0.0,1,0,0,-2.3372301326325737,-2.109972476079712,40,-2.3372301326325737,-2.109972476079712,40,0,82,15950.0,60,-16.0,0.0,-1079.0,1,1,0,1,0,0,72
1765315470.5022109,0.0,0.05383800506591797,0.04815656185150148,-2.271586869864703,0.01,0.01,0.0,1,0,0,-2.353520173475393,-2.1262624737082527,40,-2.353520173475393,-2.1262624737082527,40,0,82,15950.0,60,-16.0,0.0,-1079.0,1,1,0,1,0,0,72
1765315470.5432389,0.0,0.0542482852935791,0.04856684207916261,-2.375476060959411,0.01,0.01,0.0,1,0,0,-2.3699314000786336,-2.1426736830257815,40,-2.3699314000786336,-2.1426736830257815,40,0,82,15950.0,60,-16.0,0.0,-1079.0,1,1,0,1,0,0,72
1765315470.5835626,0.0,0.05465152263641357,0.04897007942199708,-1.2831428182875688,0.01,0.01,0.0,1,-1,0,-2.38606090079073,-2.1588031768235934,-40,-2.38606090079073,-2.1588031768235934,-40,0,83,15958.000000000002,60,-26.0,-17.0,-1038.0,1,1,0,1,-1,0,72
1765315470.6238692,0.0,0.055054588317871085,0.0493731451034546,-0.955442845486016,0.01,0.01,0.0,1,-1,0,-2.4021835308485175,-2.174925804115667,-40,-2.4021835308485175,-2.174925804115667,-40,0,83,15958.000000000002,60,-26.0,-17.0,-1038.0,1,1,0,1,-1,0,72
1765315470.6650615,0.0,0.05546651124954223,0.049785068035125744,-1.133632853645805,0.01,0.01,0.01,2,-1,0,-2.4186604492351593,-2.191402721396024,30.288759232732737,-2.4186604492351593,-2.191402721396024,30.288759232732737,0,84,15956.0,60,-46.0,1.0,-994.0,1,1,1,2,-1,0,72
1765315470.7056444,0.0,0.05587234020233154,0.050190896987915054,-1.1870898560937415,0.01,0.01,0.01,2,-1,0,-2.4348936077946504,-2.207635879513001,40,-2.4348936077946504,-2.207635879513001,40,0,84,15956.0,60,-46.0,1.0,-994.0,1,1,1,2,-1,0,72
1765315470.7467144,0.0,0.05628304004669189,0.05060159683227541,-1.2031269568281227,0.01,0.01,0.01,2,-1,0,-2.4513216017482318,-2.2240638732895763,39.347546974814165,-2.4513216017482318,-2.2240638732895763,39.347546974814165,0,84,15956.0,60,-46.0,1.0,-994.0,1,1,1,2,-1,0,72
1765315470.7875047,0.0,0.05669094324111938,0.051009500026702896,-0.7599380870484369,0.01,0.01,0.01,1,-1,0,-2.4676377295969973,-2.2403800010675394,-40,-2.4676377295969973,-2.2403800010675394,-40,0,86,15959.0,70,-31.0,-29.0,-1032.0,1,1,1,1,-1,0,72
1765315470.8279006,0.0,0.05709490299224853,0.05141345977783204,-0.6269814261145311,0.01,0.01,0.01,1,-1,0,-2.483796119670829,-2.2565383911130503,-22.840666789061835,-2.483796119670829,-2.2565383911130503,-22.840666789061835,0,86,15959.0,70,-31.0,-29.0,-1032.0,1,1,1,1,-1,0,72
